Time;Cloud Density;Current Task;Time of Day;Visibility;Rain Coefficient;Sky Saturation;Snow Coefficient;Water Accumulation;Acceleration;Acceleration Pedal;Acceleration X;Acceleration Y;Acceleration Z;Acceleration Heading;Acceleration Pitch;Acceleration Roll;Position Heading;Position Pitch;Position Roll;Velocity Heading;Velocity Pitch;Velocity Roll;Appear Radius (Behind);Appear Radius (Front);Brake Force;Clutch Pedal;Collision State;Fuel Consumption;Disappear Radius (Behind);Disappear Radius (Front);Distance to Next Intersection;Distance To Next Vehicle;RPMs;Engine State;Fast Lane;Fog Lights State;Appear Factor (Front);Gear Lever Position;Engine Gear;Headlights State;Horn State;Ignition Key Position;Turn Signal State;Lane Number;Lane Direction;Lane Type (Vehicle);Next Intersection Direction;Next Vehicle In Path;Out of Road State;Parking Brake Position;Collision Entity;Pollution;Position X;Position Y;Position Z;Queen Identifier;Road Identifier;Vehicle Transmission;Safety Distance;Safety Time;Slow Lane;Speed;Speed X;Speed Y;Speed Z;Speed Limit;Steering Wheel Angle;Trip Meter;Warning Lights State;Channel;Cartesian Distance;Curvilign Distance;Warning Lights State;Wiper State;Rear Wiper State;Brake Temperature;Vehicle Class;
0.0499701686203;0.20000000298;0.0;12.0;20000.0;0.0;1.0;0.0;0.0;0.0;0.0;0.0;0.0;0.0;0.0;0.0;0.0;0.000152039487148;0.0;0.0;0.0;0.0;0.0;500.0;500.0;0.0;0.0;0.0;0.0;500.0;1000.0;326.001953125;99000.0;0.0;0.0;5.0;0.0;0.75;1.0;1.0;0.0;0.0;2.0;0.0;4.0;0.0;0.0;0.0;-1.0;-1.0;0.0;0.0;0.0;-900.086914062;194.760879517;0.0;0.0;8.0;0.0;0.5;3.74000000954;3.0;0.0;0.0;0.0;0.0;50.0;0.0;0.0;24.853515625;0.0;26.9805107117;24.853515625;24.853515625;0.0;0.0;0.0;1.0;
0.0999665409327;0.20000000298;0.0;12.0;20000.0;0.0;1.0;0.0;0.0;2.03546524048;0.633814096451;2.03546524048;-5.40353585166e-06;0.0;0.0;0.0;0.0;0.000152039487148;0.0;0.0;0.0;-1.06346094608;0.0;500.0;500.0;0.0;0.0;0.0;0.0;500.0;1000.0;326.001953125;99000.0;750.0;1.0;5.0;0.0;0.75;1.0;1.0;0.0;0.0;2.0;0.0;4.0;0.0;0.0;3.0;-1.0;-1.0;0.0;0.0;0.0;-900.082519531;194.760879517;-0.000578996259719;0.0;8.0;0.0;0.5;3.74000000954;3.0;0.36607375741;0.101687155664;-2.69892098004e-07;-0.0233063045889;50.0;4.60457897939e-13;0.0;24.853515625;0.0;26.9805107117;24.853515625;24.853515625;0.0;0.0;0.0;1.0;
0.149976462126;0.20000000298;0.0;12.0;20000.0;0.0;1.0;0.0;0.0;1.48304355145;0.461675941944;1.48304355145;-3.93417803934e-06;0.0;0.0;0.0;0.0;0.000152039487148;-0.0520794987679;6.37790083965e-18;0.0;-0.612731158733;0.0;500.0;500.0;0.0;0.0;0.0;0.0;500.0;1000.0;326.0;99000.0;750.0;1.0;5.0;0.0;0.75;1.0;1.0;0.0;0.0;2.0;2.0;4.0;0.0;0.0;3.0;19.0;-1.0;0.0;0.0;0.0;-900.07434082;194.760879517;-0.00173776980955;0.0;8.0;0.0;0.5;3.74000000954;3.0;0.63277810812;0.175771698356;-4.66502513063e-07;-0.0195985287428;50.0;3.09435179702e-08;0.0;24.8447265625;0.0;26.9556674957;24.8447265625;24.8447265625;0.0;0.0;0.0;1.0;
0.199978262186;0.20000000298;0.0;12.0;20000.0;0.0;1.0;0.0;0.0;1.39127647877;0.433134317398;1.39127647877;-2.00002523343e-06;0.0;-0.00131481781136;0.0;0.0;0.000152039487148;-0.0848904550076;1.03960894838e-17;-0.00096597452648;-0.468275994062;0.0;500.0;500.0;0.0;0.0;0.0;0.0;500.0;1000.0;325.994140625;99000.0;750.0;1.0;5.0;0.0;0.75;1.0;1.0;0.0;0.0;2.0;2.0;4.0;0.0;0.0;3.0;19.0;-1.0;0.0;0.0;0.0;-900.062683105;194.760879517;-0.00250545633025;0.0;8.0;0.0;0.5;3.74000000954;3.0;0.883197665215;0.245332688093;-4.5890118372e-07;-0.0142459627241;50.0;-0.0030225017108;0.0116899413988;24.83203125;0.0;26.9342517853;24.83203125;24.83203125;0.0;0.0;0.0;1.0;
0.249986365438;0.20000000298;0.0;12.0;20000.0;0.0;1.0;0.0;0.0;1.39228606224;0.433451682329;1.39228606224;1.11013014248e-06;0.0;0.037698790431;0.0;0.0;5.88542970945e-05;-0.11050979048;1.35335632133e-17;-0.00495806103572;-0.448684692383;0.0;500.0;500.0;0.0;0.0;0.0;0.0;500.0;1000.0;325.986328125;99000.0;750.0;1.0;5.0;0.0;0.75;1.0;1.0;0.0;0.0;2.0;2.0;4.0;0.0;0.0;3.0;19.0;-1.0;0.0;0.0;0.0;-900.047424316;194.760879517;-0.00343274255283;0.0;8.0;0.0;0.5;3.74000000954;3.0;1.13377785683;0.314938277006;6.98496762652e-07;-0.0225920639932;50.0;-0.0120848892257;0.026945464313;24.814453125;0.0;26.9065494537;24.814453125;24.814453125;0.0;0.0;0.0;1.0;
0.299982130527;0.20000000298;0.0;12.0;20000.0;0.0;1.0;0.0;0.0;1.41217422485;0.439645826817;1.41217422485;4.60525870949e-06;0.0;-0.00903186667711;0.0;0.0;-0.000375033530872;-0.144064769149;1.76428839999e-17;-0.0136220268905;-0.365328609943;0.0;500.0;500.0;0.0;0.0;0.0;0.0;500.0;1000.0;325.967773438;99000.0;750.0;1.0;5.0;0.0;0.75;1.0;1.0;0.0;0.0;2.0;2.0;4.0;0.0;0.0;3.0;19.0;-1.0;0.0;0.0;0.0;-900.028747559;194.760879517;-0.00451675988734;0.0;8.0;0.0;0.5;3.74000000954;3.0;1.38794231415;0.385539531708;5.22931441083e-06;-0.0206268820912;50.0;-0.0271224621683;0.0456784404814;24.7783203125;0.0;26.8722229004;24.7783203125;24.7783203125;0.0;0.0;0.0;1.0;
0.349991172552;0.20000000298;0.0;12.0;20000.0;0.0;1.0;0.0;0.0;1.436175704;0.447124093771;1.436175704;8.01615260571e-06;0.0;0.0808436796069;0.0;0.0;-0.00145823240746;-0.173283621669;2.12211879205e-17;-0.0286501422524;-0.307397246361;0.0;500.0;500.0;0.0;0.0;0.0;0.0;500.0;1000.0;325.950195312;99000.0;750.0;1.0;5.0;0.0;0.75;1.0;1.0;0.0;0.0;2.0;2.0;4.0;0.0;0.0;3.0;19.0;-1.0;0.0;0.0;0.0;-900.006530762;194.760879517;-0.00542347086594;0.0;8.0;0.0;0.5;3.74000000954;3.0;1.64642953873;0.457341521978;1.71903357113e-05;-0.0177466329187;50.0;-0.0480886362493;0.067921563983;24.7421875;0.0;26.8313179016;24.7421875;24.7421875;0.0;0.0;0.0;1.0;
0.399986028671;0.20000000298;0.0;12.0;20000.0;0.0;1.0;0.0;0.0;1.46136081219;0.454969465733;1.46136081219;9.97803545033e-06;0.0;-0.0850118920207;0.0;0.0;-0.00358631252311;-0.197550833225;2.41930956602e-17;-0.051749907434;-0.261569142342;0.0;500.0;500.0;0.0;0.0;0.0;0.0;500.0;1000.0;325.928710938;99000.0;750.0;1.0;5.0;0.0;0.75;1.0;1.0;0.0;0.0;2.0;2.0;4.0;0.0;0.0;3.0;19.0;-1.0;0.0;0.0;0.0;-899.980712891;194.760879517;-0.00615463126451;0.0;8.0;0.0;0.530408263206;3.74000000954;3.0;1.9094697237;0.530408263206;4.3068175728e-05;-0.0143254026771;50.0;-0.074895478785;0.0937570556998;24.69921875;0.0;26.7837677002;24.69921875;24.69921875;0.0;0.0;0.0;1.0;
0.449959218502;0.20000000298;0.0;12.0;20000.0;0.0;1.0;0.0;0.0;-24.0295696259;0.463001072407;-24.0295696259;0.080038189888;0.0;3.28538656235;0.0;0.0;-0.0072397980839;-0.218168854713;2.67181091478e-17;-0.082218401134;0.117482095957;0.0;500.0;500.0;0.0;0.0;0.0;0.0;500.0;1000.0;325.903320312;99000.0;750.0;1.0;5.0;0.0;0.75;1.0;1.0;0.0;0.0;2.0;2.0;4.0;0.0;0.0;3.0;19.0;-1.0;0.0;0.0;0.0;-899.951721191;194.760879517;-0.00671817082912;0.0;8.0;0.0;0.587524116039;3.74000000954;3.0;2.1150867939;0.587524116039;8.91494419193e-05;-0.0128361843526;50.0;-0.107423581183;0.122738420963;24.6494140625;0.0;26.7295265198;24.6494140625;24.6494140625;0.0;0.0;0.0;1.0;
0.499989897013;0.20000000298;0.0;12.0;20000.0;0.0;1.0;0.0;0.0;-13.1369371414;0.469676911831;-13.1369371414;0.108371637762;0.0;2.51404118538;0.0;0.0;-0.0128025421873;-0.2272631675;2.7831854903e-17;-0.118951760232;0.15118317306;0.0;500.0;500.0;0.0;0.0;0.0;0.0;500.0;1000.0;325.875976562;99000.0;750.0;1.0;5.0;0.0;0.75;1.0;1.0;0.0;0.0;2.0;2.0;4.0;0.0;0.0;3.0;19.0;-1.0;0.0;0.0;0.0;-899.920959473;194.760879517;-0.00678142393008;0.0;8.0;0.0;0.627392351627;3.74000000954;3.0;2.25861239433;0.627392351627;0.000159310657182;0.0047798641026;50.0;-0.145541861653;0.153515651822;24.59375;0.0;26.6698207855;24.59375;24.59375;0.0;0.0;0.0;1.0;
0.549962460995;0.20000000298;0.0;12.0;20000.0;0.0;1.0;0.0;0.0;-0.000104592305433;0.474290132523;-0.000104592305433;1.4035445929e-05;0.0;0.0771423205733;0.0;0.0;-0.0204979367554;-0.216599628329;2.6525930276e-17;-0.164678126574;0.0965482369065;0.0;500.0;500.0;0.0;0.0;0.0;0.0;500.0;1000.0;325.840820312;99000.0;750.0;1.0;5.0;0.0;0.75;1.0;1.0;0.0;0.0;2.0;2.0;4.0;0.0;0.0;3.0;19.0;-1.0;0.0;0.0;0.0;-899.888122559;194.760879517;-0.00633769575506;0.0;8.0;0.0;0.669149577618;3.74000000954;3.0;2.4089384079;0.669149577618;0.000264566479018;0.00595790846273;50.0;-0.188916116953;0.18636097014;24.521484375;0.0;26.6058731079;24.521484375;24.521484375;0.0;0.0;0.0;1.0;
0.599994122982;0.20000000298;0.0;12.0;20000.0;0.0;1.0;0.0;0.0;-0.000118381285574;0.478910893202;-0.000118381285574;2.01829861908e-05;0.0;0.0434404611588;0.0;0.0;-0.030884930864;-0.207937523723;2.54651141538e-17;-0.22070915997;0.0622036196291;0.0;500.0;500.0;0.0;0.0;0.0;0.0;500.0;1000.0;325.8125;93.0017776489;750.0;1.0;5.0;0.0;0.75;1.0;1.0;0.0;0.0;2.0;2.0;4.0;0.0;0.0;3.0;19.0;-1.0;0.0;0.0;0.0;-899.853088379;194.760879517;-0.00593314878643;0.0;8.0;0.0;0.711895883083;3.74000000954;3.0;2.56282520294;0.711895883083;0.000416513124947;0.00355222122744;50.0;-0.237990796566;0.22135964036;24.4560546875;0.0;26.5366916656;24.4560546875;24.4560546875;0.0;0.0;0.0;1.0;
0.649965465069;0.20000000298;0.0;12.0;20000.0;0.0;1.0;0.0;0.0;-0.00013332614617;0.483640760183;-0.00013332614617;2.82792152575e-05;0.0;0.0946056544781;0.0;0.0;-0.0445606410503;-0.202165916562;2.4758286666e-17;-0.287092208862;0.0;0.0;500.0;500.0;0.0;0.0;0.0;0.0;500.0;1000.0;325.7734375;93.0086135864;750.0;1.0;5.0;0.0;0.75;1.0;1.0;0.0;0.0;2.0;2.0;4.0;0.0;0.0;3.0;19.0;-1.0;0.0;0.0;0.0;-899.815917969;194.760879517;-0.00565070100129;0.0;8.0;0.0;0.755375921726;3.74000000954;3.0;2.71935319901;0.755375921726;0.000628470617812;0.00146641943138;50.0;-0.291752457619;0.258553683758;24.376953125;0.0;26.4621047974;24.376953125;24.376953125;0.0;0.0;0.0;1.0;
0.699999809265;0.20000000298;0.0;12.0;20000.0;0.0;1.0;0.0;0.0;0.881323993206;0.488451570272;0.881323993206;0.00428994884714;0.0;-0.0388887561858;0.0;0.0;-0.062018904835;-0.199295401573;2.44067464862e-17;-0.365315854549;0.0;0.0;500.0;500.0;0.0;0.0;0.0;0.0;500.0;1000.0;325.736328125;93.0213088989;750.0;1.0;5.0;0.0;0.75;1.0;1.0;0.0;0.0;2.0;2.0;4.0;0.0;0.0;3.0;19.0;-1.0;0.0;0.0;0.0;-899.776489258;194.760879517;-0.00553254736587;0.0;8.0;0.0;0.799712538719;3.74000000954;3.0;2.87896513939;0.799712538719;0.000916769145988;-0.00278170011006;50.0;-0.350663751364;0.2979824543;24.2958984375;0.0;26.3822574615;24.2958984375;24.2958984375;0.0;0.0;0.0;1.0;
0.749997079372;0.20000000298;0.0;12.0;20000.0;0.0;1.0;0.0;0.0;0.89698767662;0.493343323469;0.89698767662;0.00470260763541;0.0;-0.465542286634;0.0;0.0;-0.0839518681169;-0.199295401573;2.44067464862e-17;-0.455882161856;0.0;0.0;500.0;500.0;0.0;0.0;0.0;0.0;500.0;1000.0;325.697265625;93.0359573364;750.0;1.0;5.0;0.0;0.75;1.0;1.0;0.0;0.0;2.0;2.0;4.0;0.0;0.0;3.0;19.0;-1.0;0.0;0.0;0.0;-899.734802246;194.760848999;-0.00553254736587;0.0;8.0;0.0;0.844560682774;3.74000000954;3.0;3.04041838646;0.844560682774;1.358855517e-08;-0.00293769873679;50.0;-0.414360165596;0.339651107788;24.2099609375;0.0;26.2969360352;24.2099609375;24.2099609375;0.0;0.0;0.0;1.0;
0.799995243549;0.20000000298;0.0;12.0;20000.0;0.0;1.0;0.0;0.0;0.912812948227;0.498291343451;0.912812948227;0.0050185257569;0.0;-0.561456143856;0.0;0.0;-0.110971555114;-0.199295401573;2.44067464862e-17;-0.559563934803;0.0;0.0;500.0;500.0;0.0;0.0;0.0;0.0;500.0;1000.0;325.655273438;93.0515823364;750.0;1.0;5.0;0.0;0.75;1.0;1.0;0.0;0.0;2.0;2.0;4.0;0.0;0.0;3.0;19.0;-1.0;0.0;0.0;0.0;-899.690856934;194.760787964;-0.00553254736587;0.0;8.0;0.0;0.890203177929;3.74000000954;3.0;3.20473146439;0.890203177929;4.10916811688e-08;-0.00309646036476;50.0;-0.482521742582;0.383593589067;24.1171875;0.0;26.2063541412;24.1171875;24.1171875;0.0;0.0;0.0;1.0;
0.849973857403;0.20000000298;0.0;12.0;20000.0;0.0;1.0;0.0;0.0;0.928893327713;0.503326714039;0.928893327713;0.00520784826949;0.0;-0.638526856899;0.0;0.0;-0.143775060773;-0.199295401573;2.44067464862e-17;-0.6770195961;0.0;0.0;500.0;500.0;0.0;0.0;0.0;0.0;500.0;1000.0;325.612304688;93.0691604614;750.0;1.0;5.0;0.0;0.75;1.0;1.0;0.0;0.0;2.0;2.0;4.0;0.0;0.0;3.0;19.0;-1.0;0.0;0.0;0.0;-899.644592285;194.760696411;-0.00553254736587;0.0;8.0;0.0;0.936648964882;3.74000000954;3.0;3.37193632126;0.936648964882;2.91653545759e-08;-0.00325801642612;50.0;-0.554856479168;0.429847359657;24.01953125;0.0;26.1103916168;24.01953125;24.01953125;0.0;0.0;0.0;1.0;
0.900010883808;0.20000000298;0.0;12.0;20000.0;0.0;1.0;0.0;0.0;0.945224046707;0.508450448513;0.945224046707;0.00524043338373;0.0;-0.755486428738;0.0;0.0;-0.18306517601;-0.199295401573;2.44067464862e-17;-0.808985948563;0.0;0.0;500.0;500.0;0.0;0.0;0.0;0.0;500.0;1000.0;325.56640625;93.0877151489;750.0;1.0;5.0;0.0;0.75;1.0;1.0;0.0;0.0;2.0;2.0;4.0;0.0;0.0;3.0;19.0;-1.0;0.0;0.0;0.0;-899.596008301;194.760559082;-0.00553254736587;0.0;8.0;0.0;0.983914077282;3.74000000954;3.0;3.54209065437;0.983914077282;8.03836144314e-08;-0.00342242233455;50.0;-0.631160914898;0.478456556797;23.916015625;0.0;26.0090751648;23.916015625;23.916015625;0.0;0.0;0.0;1.0;
0.949980735779;0.20000000298;0.0;12.0;20000.0;0.0;1.0;0.0;0.0;0.961844623089;0.51366430521;0.961844623089;0.00590340606868;0.0;-0.890992105007;0.0;0.0;-0.229654431343;-0.199295401573;2.44067464862e-17;-0.956036925316;0.0;0.0;500.0;500.0;0.0;0.0;0.0;0.0;500.0;1000.0;325.517578125;93.1072463989;750.0;1.0;5.0;0.0;0.75;1.0;1.0;0.0;0.0;2.0;2.0;4.0;0.0;0.0;3.0;19.0;-1.0;0.0;0.0;0.0;-899.54498291;194.760391235;-0.00553254736587;0.0;8.0;0.0;1.03200471401;3.74000000954;3.0;3.71521687508;1.03200471401;0.000568057701457;-0.00358969951048;50.0;-0.711130321026;0.529455959797;23.8056640625;0.0;25.9022388458;23.8056640625;23.8056640625;0.0;0.0;0.0;1.0;
1.00000393391;0.20000000298;0.0;12.0;20000.0;0.0;1.0;0.0;0.0;0.976559817791;0.518328905106;0.976559817791;0.00497228372842;0.0;-0.883175909519;0.0;0.0;-0.284225314856;-0.199295401573;2.44067464862e-17;-1.11860692501;0.0;0.0;500.0;500.0;0.0;0.0;0.0;0.0;500.0;1000.0;325.466796875;93.1326370239;750.0;1.0;5.0;0.0;0.75;1.0;1.0;0.0;0.0;2.0;2.0;4.0;0.0;0.0;3.0;19.0;-1.0;0.0;0.0;0.0;-899.491577148;194.760162354;-0.00553254736587;0.0;8.0;0.0;1.08083570004;3.74000000954;3.0;3.89100861549;1.08083570004;3.88710823529e-08;-0.00375955202617;50.0;-0.7944637537;0.582889258862;23.689453125;0.0;25.7901039124;23.689453125;23.689453125;0.0;0.0;0.0;1.0;
1.0499843359;0.20000000298;0.0;12.0;20000.0;0.0;1.0;0.0;0.0;0.990435957909;0.522738456726;0.990435957909;0.0040770531632;0.0;-1.07013118267;0.0;0.0;-0.34767588973;-0.199295401573;2.44067464862e-17;-1.29704451561;0.0;0.0;500.0;500.0;0.0;0.0;0.0;0.0;500.0;1000.0;325.4140625;93.1560745239;750.0;1.0;5.0;0.0;0.75;1.0;1.0;0.0;0.0;2.0;2.0;4.0;0.0;0.0;3.0;19.0;-1.0;0.0;0.0;0.0;-899.435668945;194.759857178;-0.00553254736587;0.0;8.0;0.0;1.13036429882;3.74000000954;3.0;4.0693116188;1.13036429882;1.33571617766e-07;-0.00393183063716;50.0;-0.880831360817;0.638793647289;23.5673828125;0.0;25.6724491119;23.5673828125;23.5673828125;0.0;0.0;0.0;1.0;
1.10001623631;0.20000000298;0.0;12.0;20000.0;0.0;1.0;0.0;0.0;1.00018751621;0.525888860226;1.00018751621;0.00316780502908;0.0;-1.04332327843;0.0;0.0;-0.420715272427;-0.199295401573;2.44067464862e-17;-1.49135637283;0.0;0.0;500.0;500.0;0.0;0.0;0.0;0.0;500.0;1000.0;325.358398438;99000.0;750.0;1.0;5.0;0.0;0.75;1.0;1.0;0.0;0.0;2.0;2.0;4.0;0.0;0.0;3.0;19.0;-1.0;0.0;0.0;0.0;-899.377258301;194.759475708;-0.00553254736587;0.0;8.0;0.0;1.18037891388;3.74000000954;3.0;4.24936389923;1.18037891388;6.07337895531e-08;-0.00410580029711;50.0;-0.969876110554;0.697189867496;23.43359375;0.0;25.5494499207;23.43359375;23.43359375;0.0;0.0;0.0;1.0;
1.1499863863;0.20000000298;0.0;12.0;20000.0;0.0;1.0;0.0;0.0;1.00319302082;0.526967465878;1.00319302082;0.0019594959449;0.0;-0.933909296989;0.0;0.0;-0.504253089428;-0.199295401573;2.44067464862e-17;-1.70118927956;0.0;0.0;500.0;500.0;0.0;0.0;0.0;0.0;500.0;1000.0;325.30078125;99000.0;750.0;1.0;5.0;0.0;0.75;1.0;1.0;0.0;0.0;2.0;2.0;4.0;0.0;0.0;3.0;19.0;-1.0;0.0;0.0;0.0;-899.31640625;194.759002686;-0.00553254736587;0.0;8.0;0.0;1.23054456711;3.74000000954;3.0;4.42996025085;1.23054456711;4.5796237913e-08;-0.004280295223;50.0;-1.06123507023;0.75809186697;23.2998046875;0.0;25.4209136963;23.2998046875;23.2998046875;0.0;0.0;0.0;1.0;
1.20001196861;0.20000000298;0.0;12.0;20000.0;0.0;1.0;0.0;0.0;1.00608742237;0.528044641018;1.00608742237;0.000427235820098;0.0;-1.31254267693;0.0;0.0;-0.598889410496;-0.199295401573;2.44067464862e-17;-1.92643356323;0.0;0.0;500.0;500.0;0.0;0.0;0.0;0.0;500.0;1000.0;325.240234375;99000.0;750.0;1.0;5.0;0.0;0.75;1.0;1.0;0.0;0.0;2.0;2.0;4.0;0.0;0.0;3.0;19.0;-1.0;0.0;0.0;0.0;-899.252990723;194.758407593;-0.00553254736587;0.0;8.0;0.0;1.28085887432;3.74000000954;3.0;4.61109209061;1.28085887432;1.56532252049e-07;-0.00445530749857;50.0;-1.15454018116;0.821510791779;23.158203125;0.0;25.2871551514;23.158203125;23.158203125;0.0;0.0;0.0;1.0;
1.24997973442;0.20000000298;0.0;12.0;20000.0;0.0;1.0;0.0;0.0;1.00901281834;0.529120326042;1.00901281834;0.000489937723614;0.0;-1.6421226263;0.0;0.0;-0.705572664738;-0.199295401573;2.44067464862e-17;-2.16680264473;0.0;0.0;500.0;500.0;0.0;0.0;0.0;0.0;500.0;1000.0;325.176757812;99000.0;750.0;1.0;5.0;0.0;0.75;1.0;1.0;0.0;0.0;2.0;2.0;4.0;0.0;0.0;3.0;19.0;-1.0;0.0;0.0;0.0;-899.187011719;194.757675171;-0.00553254736587;0.0;8.0;0.0;1.3313087225;3.74000000954;3.0;4.79271125793;1.3313087225;0.00124704383779;-0.00463079102337;50.0;-1.24938619137;0.887444853783;23.0107421875;0.0;25.1479110718;23.0107421875;23.0107421875;0.0;0.0;0.0;1.0;
1.30002367496;0.20000000298;0.0;12.0;20000.0;0.0;1.0;0.0;0.0;1.01148104668;0.530194222927;1.01148104668;-0.00369950686581;0.0;-1.39900648594;0.0;0.0;-0.824836373329;-0.199295401573;2.44067464862e-17;-2.42197489738;0.0;0.0;500.0;500.0;0.0;0.0;0.0;0.0;500.0;1000.0;325.111328125;99000.0;750.0;1.0;5.0;0.0;0.75;1.0;1.0;0.0;0.0;2.0;2.0;4.0;0.0;0.0;3.0;19.0;-1.0;0.0;0.0;0.0;-899.118591309;194.756774902;-0.00553254736587;0.0;8.0;0.0;1.38189613819;3.74000000954;3.0;4.97482585907;1.38189613819;1.80442441433e-07;-0.00480675324798;50.0;-1.34539711475;0.955912232399;22.8583984375;0.0;25.003490448;22.8583984375;22.8583984375;0.0;0.0;0.0;1.0;
1.35002219677;0.20000000298;0.0;12.0;20000.0;0.0;1.0;0.0;0.0;1.01394844055;0.531266331673;1.01394844055;-0.00633295578882;0.0;-1.53006589413;0.0;0.0;-0.957685470581;-0.199295401573;2.44067464862e-17;-2.6914255619;0.0;0.0;500.0;500.0;0.0;0.0;0.0;0.0;500.0;1000.0;325.04296875;99000.0;750.0;1.0;5.0;0.0;0.75;1.0;1.0;0.0;0.0;2.0;2.0;4.0;0.0;0.0;3.0;19.0;-1.0;0.0;0.0;0.0;-899.047546387;194.755691528;-0.00553254736587;0.0;8.0;0.0;1.43261003494;3.74000000954;3.0;5.15739631653;1.43261003494;2.56127009379e-07;-0.00498315505683;50.0;-1.44215083122;1.0269151926;22.69921875;0.0;24.8536434174;22.69921875;22.69921875;0.0;0.0;0.0;1.0;
1.40002000332;0.20000000298;0.0;12.0;20000.0;0.0;1.0;0.0;0.0;1.01625645161;0.532336473465;1.01625645161;-0.00935802236199;0.0;1.33022499084;0.0;0.0;-1.1045384407;-0.199295401573;2.44067464862e-17;-2.97066068649;0.0;0.0;500.0;500.0;0.0;0.0;0.0;0.0;500.0;1000.0;324.967773438;99000.0;750.0;1.0;5.0;0.0;0.75;1.0;1.0;0.0;0.0;2.0;2.0;4.0;0.0;0.0;3.0;19.0;-1.0;0.0;0.0;0.0;-898.974060059;194.754379272;-0.00553254736587;0.0;8.0;0.0;1.4834382534;3.74000000954;3.0;5.34037780762;1.4834382534;3.96743295994e-08;-0.00515995454043;50.0;-1.53723359108;1.10045313835;22.5283203125;0.0;24.698677063;22.5283203125;22.5283203125;0.0;0.0;0.0;1.0;
1.44999980927;0.20000000298;0.0;12.0;20000.0;0.0;1.0;0.0;0.0;1.01834845543;0.533404350281;1.01834845543;-0.0128151066601;0.0;-0.79298812151;0.0;0.0;-1.26575791836;-0.199295401573;2.44067464862e-17;-3.27000665665;0.0;0.0;500.0;500.0;0.0;0.0;0.0;0.0;500.0;1000.0;324.8984375;99000.0;750.0;1.0;5.0;0.0;0.75;1.0;1.0;0.0;0.0;2.0;2.0;4.0;0.0;0.0;3.0;19.0;-1.0;0.0;0.0;0.0;-898.898010254;194.752822876;-0.00553254736587;0.0;8.0;0.0;1.53437495232;3.74000000954;3.0;5.52374982834;1.53437495232;1.33960355697e-07;-0.00533713167533;50.0;-1.63596284389;1.17653846741;22.361328125;0.0;24.5385456085;22.361328125;22.361328125;0.0;0.0;0.0;1.0;
1.50003182888;0.20000000298;0.0;12.0;20000.0;0.0;1.0;0.0;0.0;1.02027213573;0.534469902515;1.02027213573;-0.0166675820947;0.0;-2.08579182625;0.0;0.0;-1.44280529022;-0.199295401573;2.44067464862e-17;-3.57352113724;0.0;0.0;500.0;500.0;0.0;0.0;0.0;0.0;500.0;1000.0;324.818359375;99000.0;750.0;1.0;5.0;0.0;0.75;1.0;1.0;0.0;0.0;2.0;2.0;4.0;0.0;0.0;3.0;19.0;-1.0;0.0;0.0;0.0;-898.819335938;194.750976562;-0.00553254736587;0.0;8.0;0.0;1.58542346954;3.74000000954;3.0;5.70752429962;1.58542346954;1.16251578675e-06;-0.00551469763741;50.0;-1.73024404049;1.25519406796;22.1787109375;0.0;24.3733596802;22.1787109375;22.1787109375;0.0;0.0;0.0;1.0;
1.5500305891;0.20000000298;0.0;12.0;20000.0;0.0;1.0;0.0;0.0;1.02239322662;0.535533130169;1.02239322662;-0.0174510646611;0.0;-2.43075633049;0.0;0.0;-1.63532805443;-0.199295401573;2.44067464862e-17;-3.89143657684;0.0;0.0;500.0;500.0;0.0;0.0;0.0;0.0;500.0;1000.0;324.739257812;99000.0;750.0;1.0;5.0;0.0;0.75;1.0;1.0;0.0;0.0;2.0;2.0;4.0;0.0;0.0;3.0;19.0;-1.0;0.0;0.0;0.0;-898.738220215;194.748825073;-0.00553254736587;0.0;8.0;0.0;1.63653612137;3.74000000954;3.0;5.89153003693;1.63653612137;0.00229827361181;-0.00569248665124;50.0;-1.82532513142;1.33636748791;21.994140625;0.0;24.2029590607;21.994140625;21.994140625;0.0;0.0;0.0;1.0;
1.60003662109;0.20000000298;0.0;12.0;20000.0;0.0;1.0;0.0;0.0;1.0234401226;0.536593079567;1.0234401226;-0.0256827827543;0.0;-0.713718235493;0.0;0.0;-1.84427392483;-0.199295401573;2.44067464862e-17;-4.21951627731;0.0;0.0;500.0;500.0;0.0;0.0;0.0;0.0;500.0;1000.0;324.658203125;93.4734573364;750.0;1.0;5.0;0.0;0.75;1.0;1.0;0.0;0.0;2.0;2.0;4.0;0.0;0.0;3.0;19.0;-1.0;0.0;0.0;0.0;-898.65447998;194.746292114;-0.00553254736587;0.0;8.0;0.0;1.68773794174;3.74000000954;3.0;6.07585668564;1.68773794174;2.36104455098e-07;-0.00587058532983;50.0;-1.91917216778;1.42011904716;21.8037109375;0.0;24.0276355743;21.8037109375;21.8037109375;0.0;0.0;0.0;1.0;
1.65000700951;0.20000000298;0.0;12.0;20000.0;0.0;1.0;0.0;0.0;-5.72252321243;0.537650346756;-5.72252321243;0.399988532066;0.0;17.1112422943;0.0;0.0;-2.07008385658;-0.199295401573;2.44067464862e-17;-4.55604076385;0.0;0.0;500.0;500.0;0.0;0.0;0.0;0.0;500.0;1000.0;324.575195312;93.5095901489;750.0;1.0;5.0;0.0;0.75;1.0;1.0;0.0;0.0;2.0;2.0;4.0;0.0;0.0;3.0;19.0;-1.0;0.0;0.0;0.0;-898.568237305;194.743347168;-0.00553254736587;0.0;8.0;0.0;1.73897957802;3.74000000954;3.0;6.2603263855;1.73897957802;2.10778671317e-06;-0.00604882324114;50.0;-2.01117277145;1.50643587112;21.607421875;0.0;23.8474941254;21.607421875;21.607421875;0.0;0.0;0.0;1.0;
1.70004200935;0.20000000298;0.0;12.0;20000.0;0.0;1.0;0.0;0.0;1.02664709091;0.53880417347;1.02664709091;-0.0319822728634;0.0;-2.80910253525;0.0;0.0;-2.31290841103;-0.199295401573;-0.00146554608364;-4.89965391159;0.0;-0.0573520772159;500.0;500.0;0.0;0.0;0.0;0.0;500.0;1000.0;324.489257812;93.5466995239;750.0;1.0;5.0;0.0;0.75;1.0;1.0;0.0;0.0;2.0;2.0;4.0;0.0;0.0;3.0;19.0;-1.0;0.0;0.0;0.0;-898.479431152;194.739959717;-0.00553254643455;0.0;8.0;0.0;1.79031467438;3.74000000954;3.0;6.44513273239;1.79031467438;0.00297317630611;-0.00622723530978;50.0;-2.10083413124;1.59530949593;21.4052734375;0.0;23.6626186371;21.4052734375;21.4052734375;0.0;0.0;0.0;1.0;
1.75003826618;0.20000000298;0.0;12.0;20000.0;0.0;1.0;0.0;0.0;1.0267894268;0.539854824543;1.0267894268;-0.0423845499754;0.0;-1.41959857941;0.0;0.0;-2.57348203659;-0.199295401573;-0.0057678706944;-5.24896287918;0.0;0.0;500.0;500.0;0.0;0.0;0.0;0.0;500.0;1000.0;324.400390625;93.5838088989;750.0;1.0;5.0;0.0;0.75;1.0;1.0;0.0;0.0;2.0;2.0;4.0;0.0;0.0;3.0;19.0;-1.0;0.0;0.0;0.0;-898.388061523;194.736083984;-0.00553254643455;0.0;8.0;0.0;1.84169816971;3.74000000954;3.0;6.63011360168;1.84169816971;6.06896549016e-07;-0.00640611723065;50.0;-2.18781852722;1.68676149845;21.1962890625;0.0;23.4727172852;21.1962890625;21.1962890625;0.0;0.0;0.0;1.0;
1.80004429817;0.20000000298;0.0;12.0;20000.0;0.0;1.0;0.0;0.0;1.02733433247;0.540901958942;1.02733433247;-0.0487688183784;0.0;0.963056862354;0.0;0.0;-2.85155367851;-0.199295401573;-0.00289931264706;-5.60239028931;0.0;0.0;500.0;500.0;0.0;0.0;0.0;0.0;500.0;1000.0;324.30859375;93.6228713989;750.0;1.0;5.0;0.0;0.75;1.0;1.0;0.0;0.0;2.0;2.0;4.0;0.0;0.0;3.0;19.0;-1.0;0.0;0.0;0.0;-898.294128418;194.731643677;-0.00553254550323;0.0;8.0;0.0;1.8931106329;3.74000000954;3.0;6.81519842148;1.8931106329;2.85405064915e-07;-0.00658494839445;50.0;-2.27171421051;1.78077888489;20.98046875;0.0;23.2784729004;20.98046875;20.98046875;0.0;0.0;0.0;1.0;
1.85001540184;0.20000000298;0.0;12.0;20000.0;0.0;1.0;0.0;0.0;1.02855110168;0.54194521904;1.02855110168;-0.0501578040421;0.0;-3.1505279541;0.0;0.0;-3.14748191833;-0.199295401573;-0.00451936526224;-5.95806837082;0.0;0.0;500.0;500.0;0.0;0.0;0.0;0.0;500.0;1000.0;324.21484375;93.6629104614;750.0;1.0;5.0;0.0;0.75;1.0;1.0;0.0;0.0;2.0;2.0;4.0;0.0;0.0;3.0;19.0;-1.0;0.0;0.0;0.0;-898.197692871;194.726593018;-0.00553254410625;0.0;8.0;0.0;1.94454133511;3.74000000954;3.0;7.0003490448;1.94454133511;0.00373450783081;-0.00676344474778;50.0;-2.35203552246;1.87736368179;20.759765625;0.0;23.0796222687;20.759765625;20.759765625;0.0;0.0;0.0;1.0;
1.9000518322;0.20000000298;0.0;12.0;20000.0;0.0;1.0;0.0;0.0;1.02776622772;0.542984426022;1.02776622772;-0.0626651644707;0.0;0.804505169392;0.0;0.0;-3.46103405952;-0.199295401573;-0.00612845318392;-6.31439828873;0.0;0.0;500.0;500.0;0.0;0.0;0.0;0.0;500.0;1000.0;324.119140625;93.7039260864;750.0;1.0;5.0;0.0;0.75;1.0;1.0;0.0;0.0;2.0;2.0;4.0;0.0;0.0;3.0;19.0;-1.0;0.0;0.0;0.0;-898.098693848;194.72088623;-0.00553254177794;0.0;8.0;0.0;1.99598479271;3.74000000954;3.0;7.18554544449;1.99598479271;4.24099170004e-07;-0.00694278394803;50.0;-2.42846059799;1.97652566433;20.5322265625;0.0;22.8764286041;20.5322265625;20.5322265625;0.0;0.0;0.0;1.0;
1.95002555847;0.20000000298;0.0;12.0;20000.0;0.0;1.0;0.0;0.0;1.02767908573;0.544019460678;1.02767908573;-0.0701366439462;0.0;1.22695815563;0.0;0.0;-3.79276323318;-0.199295401573;-0.00774751743302;-6.66954898834;0.0;0.0;500.0;500.0;0.0;0.0;0.0;0.0;500.0;1000.0;324.020507812;93.7459182739;750.0;1.0;5.0;0.0;0.75;1.0;1.0;0.0;0.0;2.0;2.0;4.0;0.0;0.0;3.0;19.0;-1.0;0.0;0.0;0.0;-897.997131348;194.714447021;-0.00553253944963;0.0;8.0;0.0;2.04742860794;3.74000000954;3.0;7.37074279785;2.04742860794;4.53493726127e-07;-0.00712172454223;50.0;-2.50059866905;2.07825994492;20.298828125;0.0;22.6689109802;20.298828125;20.298828125;0.0;0.0;0.0;1.0;
2.00005793571;0.20000000298;0.0;12.0;20000.0;0.0;1.0;0.0;0.0;1.02741467953;0.545050144196;1.02741467953;-0.0779236406088;0.0;12.0884876251;0.0;0.0;-4.14173793793;-0.199295401573;-0.00939203146845;-7.02163887024;0.0;0.0;500.0;500.0;0.0;0.0;0.0;0.0;500.0;1000.0;323.918945312;93.7888870239;750.0;1.0;5.0;0.0;0.75;1.0;1.0;0.0;0.0;2.0;2.0;4.0;0.0;0.0;3.0;19.0;-1.0;0.0;0.0;0.0;-897.893066406;194.707244873;-0.00553253619;0.0;8.0;0.0;2.09886169434;3.74000000954;3.0;7.55590200424;2.09886169434;1.59468697802e-07;-0.00730062834918;50.0;-2.56809425354;2.18256235123;20.0595703125;0.0;22.4574432373;20.0595703125;20.0595703125;0.0;0.0;0.0;1.0;
2.05002617836;0.20000000298;0.0;12.0;20000.0;0.0;1.0;0.0;0.0;1.02699625492;0.546076238155;1.02699625492;-0.0859971866012;0.0;3.7932677269;0.0;0.0;-4.50849962234;-0.199295401573;-0.0110729662701;-7.36882209778;0.0;0.0;500.0;500.0;0.0;0.0;0.0;0.0;500.0;1000.0;323.814453125;93.8328323364;750.0;1.0;5.0;0.0;0.75;1.0;1.0;0.0;0.0;2.0;2.0;4.0;0.0;0.0;3.0;19.0;-1.0;0.0;0.0;0.0;-897.786499023;194.699203491;-0.00553253246471;0.0;8.0;0.0;2.15027976036;3.74000000954;3.0;7.74100732803;2.15027976036;3.99101992343e-07;-0.00747947953641;50.0;-2.63062763214;2.28943824768;19.8125;0.0;22.2417812347;19.8125;19.8125;0.0;0.0;0.0;1.0;
2.10005831718;0.20000000298;0.0;12.0;20000.0;0.0;1.0;0.0;0.0;1.02645146847;0.547097742558;1.02645146847;-0.0943268239498;0.0;0.726015388966;0.0;0.0;-4.89187526703;-0.199295401573;-0.0127976117656;-7.70917987823;0.0;0.0;500.0;500.0;0.0;0.0;0.0;0.0;500.0;1000.0;323.708007812;99000.0;750.0;1.0;5.0;0.0;0.75;1.0;1.0;0.0;0.0;2.0;2.0;4.0;0.0;0.0;3.0;19.0;-1.0;0.0;0.0;0.0;-897.677429199;194.690231323;-0.00553252827376;0.0;8.0;0.0;2.20167684555;3.74000000954;3.0;7.92603683472;2.20167684555;7.87836427207e-07;-0.00765825761482;50.0;-2.6878862381;2.39888834953;19.560546875;0.0;22.0226020813;19.560546875;19.560546875;0.0;0.0;0.0;1.0;
2.15002846718;0.20000000298;0.0;12.0;20000.0;0.0;1.0;0.0;0.0;1.02732861042;0.548114538193;1.02732861042;-0.0956897288561;0.0;-3.66422057152;0.0;0.0;-5.29235029221;-0.199295401573;-0.0145702268928;-8.04071044922;0.0;0.0;500.0;500.0;0.0;0.0;0.0;0.0;500.0;1000.0;323.599609375;99000.0;750.0;1.0;5.0;0.0;0.75;1.0;1.0;0.0;0.0;2.0;2.0;4.0;0.0;0.0;3.0;19.0;-1.0;0.0;0.0;0.0;-897.565856934;194.68031311;-0.00553252315149;0.0;8.0;0.0;2.25304079056;3.74000000954;3.0;8.11094665527;2.25304079056;0.00542213022709;-0.00783536955714;50.0;-2.73955917358;2.51089501381;19.302734375;0.0;21.7995433807;19.302734375;19.302734375;0.0;0.0;0.0;1.0;
2.2000617981;0.20000000298;0.0;12.0;20000.0;0.0;1.0;0.0;0.0;1.02320349216;0.548530936241;1.02320349216;-0.111603736877;0.0;2.33036828041;0.0;0.0;-5.70843982697;-0.199295401573;-0.0163924992085;-8.3612947464;0.0;0.0;500.0;500.0;0.0;0.0;0.0;0.0;500.0;1000.0;323.48828125;99000.0;750.0;1.0;5.0;0.0;0.75;1.0;1.0;0.0;0.0;2.0;2.0;4.0;0.0;0.0;3.0;19.0;-1.0;0.0;0.0;0.0;-897.451843262;194.669342041;-0.00553251709789;0.0;8.0;0.0;2.30428290367;3.74000000954;3.0;8.29541873932;2.30428290367;7.41508927149e-07;-0.00801516044885;50.0;-2.7854411602;2.6254761219;19.0341796875;0.0;21.5731925964;19.0341796875;19.0341796875;0.0;0.0;0.0;1.0;
2.25003361702;0.20000000298;0.0;12.0;20000.0;0.0;1.0;0.0;0.0;1.01931786537;0.548549711704;1.01931786537;-0.116997748613;0.0;1.27123236656;0.0;0.0;-6.14048671722;-0.199295401573;-0.0182640179992;-8.66875267029;0.0;0.0;500.0;500.0;0.0;0.0;0.0;0.0;500.0;1000.0;323.374023438;99000.0;750.0;1.0;5.0;0.0;0.75;1.0;1.0;0.0;0.0;2.0;2.0;4.0;0.0;0.0;3.0;19.0;-1.0;0.0;0.0;0.0;-897.335327148;194.65725708;-0.00553251057863;0.0;8.0;0.0;2.35533547401;3.74000000954;3.0;8.47920799255;2.35533547401;1.0785096265e-06;-0.00819274038076;50.0;-2.82527112961;2.74261498451;18.7626953125;0.0;21.3436794281;18.7626953125;18.7626953125;0.0;0.0;0.0;1.0;
2.30002498627;0.20000000298;0.0;12.0;20000.0;0.0;1.0;0.0;0.0;1.01547408104;0.548568665981;1.01547408104;-0.125595018268;0.0;23.4566516876;0.0;0.0;-6.58671569824;-0.199295401573;-0.020181896165;-8.96120738983;0.0;0.0;500.0;500.0;0.0;0.0;0.0;0.0;500.0;1000.0;323.2578125;99000.0;750.0;1.0;5.0;0.0;0.75;1.0;1.0;0.0;0.0;2.0;2.0;4.0;0.0;0.0;3.0;19.0;-1.0;0.0;0.0;0.0;-897.216369629;194.644012451;-0.00553250312805;0.0;8.0;0.0;2.40619516373;3.74000000954;3.0;8.66230297089;2.40619516373;2.2372961439e-07;-0.00836964976043;50.0;-2.8588540554;2.8622906208;18.486328125;0.0;21.111322403;18.486328125;18.486328125;0.0;0.0;0.0;1.0;
2.35002207756;0.20000000298;0.0;12.0;20000.0;0.0;1.0;0.0;0.0;1.01171088219;0.548587918282;1.01171088219;-0.134224563837;0.0;-2.63417053223;0.0;0.0;-7.04695320129;-0.199295401573;-0.0221412908286;-9.23730278015;0.0;0.0;500.0;500.0;0.0;0.0;0.0;0.0;500.0;1000.0;323.138671875;99000.0;750.0;1.0;5.0;0.0;0.75;1.0;1.0;0.0;0.0;2.0;2.0;4.0;0.0;0.0;3.0;19.0;-1.0;0.0;0.0;0.0;-897.094970703;194.62953186;-0.00553249474615;0.0;8.0;0.0;2.45689082146;3.74000000954;3.0;8.84480667114;2.45689082146;5.75489366383e-06;-0.00854598544538;50.0;-2.8861284256;2.98455405235;18.2041015625;0.0;20.8761634827;18.2041015625;18.2041015625;0.0;0.0;0.0;1.0;
2.40007042885;0.20000000298;0.0;12.0;20000.0;0.0;1.0;0.0;0.0;1.0100812912;0.548607349396;1.0100812912;-0.134534686804;0.0;-3.82131576538;0.0;0.0;-7.52021312714;-0.199295401573;-0.0241363532841;-9.49428653717;0.0;0.0;500.0;500.0;0.0;0.0;0.0;0.0;500.0;1000.0;323.017578125;99000.0;750.0;1.0;5.0;0.0;0.75;1.0;1.0;0.0;0.0;2.0;2.0;4.0;0.0;0.0;3.0;19.0;-1.0;0.0;0.0;0.0;-896.971252441;194.613739014;-0.00553248543292;0.0;8.0;0.0;2.50737023354;3.74000000954;3.0;9.02653312683;2.50737023354;0.00691548036411;-0.00871841795743;50.0;-2.90669131279;3.10925388336;17.9150390625;0.0;20.6385250092;17.9150390625;17.9150390625;0.0;0.0;0.0;1.0;
2.45006895065;0.20000000298;0.0;12.0;20000.0;0.0;1.0;0.0;0.0;1.00461113453;0.548627018929;1.00461113453;-0.151412799954;0.0;27.9884376526;0.0;0.0;-8.00583744049;-0.199295401573;-0.0261599142104;-9.73180103302;0.0;0.0;500.0;500.0;0.0;0.0;0.0;0.0;500.0;1000.0;322.89453125;99000.0;750.0;1.0;5.0;0.0;0.75;1.0;1.0;0.0;0.0;2.0;2.0;4.0;0.0;0.0;3.0;19.0;-1.0;0.0;0.0;0.0;-896.845153809;194.596572876;-0.00553247518837;0.0;8.0;0.0;2.55769443512;3.74000000954;3.0;9.2076997757;2.55769443512;2.53196873246e-07;-0.00889662187546;50.0;-2.92079353333;3.23651075363;17.62109375;0.0;20.3982601166;17.62109375;17.62109375;0.0;0.0;0.0;1.0;
2.50007390976;0.20000000298;0.0;12.0;20000.0;0.0;1.0;0.0;0.0;1.0035264492;0.54864692688;1.0035264492;-0.151227802038;0.0;-3.82407188416;0.0;0.0;-8.50190544128;-0.199295401573;-0.028204170987;-9.94770812988;0.0;0.0;500.0;500.0;0.0;0.0;0.0;0.0;500.0;1000.0;322.768554688;99000.0;750.0;1.0;5.0;0.0;0.75;1.0;1.0;0.0;0.0;2.0;2.0;4.0;0.0;0.0;3.0;19.0;-1.0;0.0;0.0;0.0;-896.71673584;194.577972412;-0.00553246447816;0.0;8.0;0.0;2.6078555584;3.74000000954;3.0;9.38827991486;2.6078555584;0.00742980232462;-0.0090671768412;50.0;-2.9281578064;3.36627221107;17.3212890625;0.0;20.1567878723;17.3212890625;17.3212890625;0.0;0.0;0.0;1.0;
2.55007171631;0.20000000298;0.0;12.0;20000.0;0.0;1.0;0.0;0.0;0.998350083828;0.548667013645;0.998350083828;-0.168197065592;0.0;2.45684409142;0.0;0.0;-9.00775337219;-0.199295401573;-0.0302606020123;-10.1407766342;0.0;0.0;500.0;500.0;0.0;0.0;0.0;0.0;500.0;1000.0;322.639648438;94.3357620239;750.0;1.0;5.0;0.0;0.75;1.0;1.0;0.0;0.0;2.0;2.0;4.0;0.0;0.0;3.0;19.0;-1.0;0.0;0.0;0.0;-896.585998535;194.557876587;-0.00553245283663;0.0;8.0;0.0;2.65787386894;3.74000000954;3.0;9.56834602356;2.65787386894;1.45425963183e-06;-0.00924508273602;50.0;-2.92882299423;3.49855184555;17.0146484375;0.0;19.9132556915;17.0146484375;17.0146484375;0.0;0.0;0.0;1.0;
2.60004639626;0.20000000298;0.0;12.0;20000.0;0.0;1.0;0.0;0.0;0.997949063778;0.548687338829;0.997949063778;-0.167404606938;0.0;-3.79530596733;0.0;0.0;-9.52204799652;-0.199295401573;-0.0323200114071;-10.3095846176;0.0;0.0;500.0;500.0;0.0;0.0;0.0;0.0;500.0;1000.0;322.509765625;94.3924026489;750.0;1.0;5.0;0.0;0.75;1.0;1.0;0.0;0.0;2.0;2.0;4.0;0.0;0.0;3.0;19.0;-1.0;0.0;0.0;0.0;-896.45300293;194.536209106;-0.00553244026378;0.0;8.0;0.0;2.70775294304;3.74000000954;3.0;9.74791049957;2.70775294304;0.00788359902799;-0.00941385235637;50.0;-2.92271971703;3.63331437111;16.703125;0.0;19.6690216064;16.703125;16.703125;0.0;0.0;0.0;1.0;
2.65005397797;0.20000000298;0.0;12.0;20000.0;0.0;1.0;0.0;0.0;0.993248701096;0.548707842827;0.993248701096;-0.18419867754;0.0;-2.33374643326;0.0;0.0;-10.0433397293;-0.199295401573;-0.0343725457788;-10.4533777237;0.0;0.0;500.0;500.0;0.0;0.0;0.0;0.0;500.0;1000.0;322.376953125;94.4490432739;750.0;1.0;5.0;0.0;0.75;1.0;1.0;0.0;0.0;2.0;2.0;4.0;0.0;0.0;3.0;19.0;-1.0;0.0;0.0;0.0;-896.317687988;194.512908936;-0.00553242722526;0.0;8.0;0.0;2.75753450394;3.74000000954;3.0;9.92712402344;2.75753450394;6.9138377512e-06;-0.00959173683077;50.0;-2.90999317169;3.77062606812;16.384765625;0.0;19.4235057831;16.384765625;16.384765625;0.0;0.0;0.0;1.0;
2.70008230209;0.20000000298;0.0;12.0;20000.0;0.0;1.0;0.0;0.0;0.994975268841;0.548728644848;0.994975268841;-0.191789314151;0.0;-2.55904626846;0.0;0.0;-10.5709199905;-0.199295401573;-0.0364080220461;-10.570684433;0.0;0.0;500.0;500.0;0.0;0.0;0.0;0.0;500.0;1000.0;322.241210938;94.5056838989;759.480834961;1.0;5.0;0.0;0.75;1.0;1.0;0.0;0.0;2.0;2.0;4.0;0.0;0.0;3.0;19.0;-1.0;0.0;0.0;0.0;-896.180114746;194.487945557;-0.00553241372108;0.0;8.0;0.0;2.80724716187;3.74000000954;3.0;10.106089592;2.80724716187;8.5442316049e-06;-0.00976465456188;50.0;-2.89053845406;3.91043710709;16.060546875;0.0;19.1778774261;16.060546875;16.060546875;0.0;0.0;0.0;1.0;
2.75008130074;0.20000000298;0.0;12.0;20000.0;0.0;1.0;0.0;0.0;0.998475968838;0.548749566078;0.998475968838;-0.189838558435;0.0;-3.72081971169;0.0;0.0;-11.1032781601;-0.199295401573;-0.0384156033397;-10.6603355408;0.0;0.0;500.0;500.0;0.0;0.0;0.0;0.0;500.0;1000.0;322.104492188;94.5652542114;766.225036621;1.0;5.0;0.0;0.75;1.0;1.0;0.0;0.0;2.0;2.0;4.0;0.0;0.0;3.0;19.0;-1.0;0.0;0.0;0.0;-896.040527344;194.461257935;-0.00553239975125;0.0;8.0;0.0;2.85703730583;3.74000000954;3.0;10.2853345871;2.85703730583;0.00841370504349;-0.00993192009628;50.0;-2.86424398422;4.05254364014;15.7314453125;0.0;18.9317703247;15.7314453125;15.7314453125;0.0;0.0;0.0;1.0;
2.80008721352;0.20000000298;0.0;12.0;20000.0;0.0;1.0;0.0;0.0;1.00278568268;0.548770666122;1.00278568268;-0.205997124314;0.0;6.47091722488;0.0;0.0;-11.6384477615;-0.199295401573;-0.040383528918;-10.7243709564;0.0;0.0;500.0;500.0;0.0;0.0;0.0;0.0;500.0;1000.0;321.96484375;94.6248245239;786.495605469;1.0;5.0;0.0;0.75;1.0;1.0;0.0;0.0;2.0;2.0;4.0;0.0;0.0;3.0;19.0;-1.0;0.0;0.0;0.0;-895.898620605;194.432769775;-0.00553238531575;0.0;8.0;0.0;2.90707707405;3.74000000954;3.0;10.4654769897;2.90707707405;1.01799309959e-06;-0.0101119065657;50.0;-2.83185863495;4.19727754593;15.396484375;0.0;18.6858081818;15.396484375;15.396484375;0.0;0.0;0.0;1.0;
2.85005903244;0.20000000298;0.0;12.0;20000.0;0.0;1.0;0.0;0.0;1.00735545158;0.548791944981;1.00735545158;-0.212520316243;0.0;6.27457618713;0.0;0.0;-12.1756258011;-0.199295401573;-0.0423027761281;-10.7597637177;0.0;0.0;500.0;500.0;0.0;0.0;0.0;0.0;500.0;1000.0;321.823242188;94.6863479614;800.095153809;1.0;5.0;0.0;0.75;1.0;1.0;0.0;0.0;2.0;2.0;4.0;0.0;0.0;3.0;19.0;-1.0;0.0;0.0;0.0;-895.754577637;194.402435303;-0.00553237088025;0.0;8.0;0.0;2.95734405518;3.74000000954;3.0;10.6464385986;2.95734405518;1.03260663309e-06;-0.0102867539972;50.0;-2.79291129112;4.34452152252;15.0556640625;0.0;18.4411678314;15.0556640625;15.0556640625;0.0;0.0;0.0;1.0;
2.90012931824;0.20000000298;0.0;12.0;20000.0;0.0;1.0;0.0;0.0;1.01240170002;0.548813462257;1.01240170002;-0.218578442931;0.0;45.5034675598;0.0;0.0;-12.7128000259;-0.199295401573;-0.0441630966961;-10.7662849426;0.0;0.0;500.0;500.0;0.0;0.0;0.0;0.0;500.0;1000.0;321.678710938;94.7478713989;813.762451172;1.0;5.0;0.0;0.75;1.0;1.0;0.0;0.0;2.0;2.0;4.0;0.0;0.0;3.0;19.0;-1.0;0.0;0.0;0.0;-895.608276367;194.37020874;-0.00553235644475;0.0;8.0;0.0;3.00785923004;3.74000000954;3.0;10.8282928467;3.00785923004;2.09223898651e-07;-0.010462465696;50.0;-2.74767041206;4.49428129196;14.708984375;0.0;18.1975841522;14.708984375;14.708984375;0.0;0.0;0.0;1.0;
2.95011258125;0.20000000298;0.0;12.0;20000.0;0.0;1.0;0.0;0.0;1.01794099808;0.548835158348;1.01794099808;-0.224112674594;0.0;9.65566825867;0.0;0.0;-13.2499389648;-0.199295401573;-0.0459534339607;-10.743432045;0.0;0.0;500.0;500.0;0.0;0.0;0.0;0.0;500.0;1000.0;321.533203125;94.8113479614;827.503295898;1.0;5.0;0.0;0.75;1.0;1.0;0.0;0.0;2.0;2.0;4.0;0.0;0.0;3.0;19.0;-1.0;0.0;0.0;0.0;-895.459899902;194.33605957;-0.00553234200925;0.0;8.0;0.0;3.05865049362;3.74000000954;3.0;11.011141777;3.05865049362;7.37523862426e-07;-0.0106391366571;50.0;-2.69630765915;4.64658164978;14.357421875;0.0;17.9552249908;14.357421875;14.357421875;0.0;0.0;0.0;1.0;
3.00009512901;0.20000000298;0.0;12.0;20000.0;0.0;1.0;0.0;0.0;1.02398622036;0.548857033253;1.02398622036;-0.229062959552;0.0;-1.76936435699;0.0;0.0;-13.7835617065;-0.199295401573;-0.0476620532572;-10.690788269;0.0;0.0;500.0;500.0;0.0;0.0;0.0;0.0;500.0;1000.0;321.384765625;94.8758010864;841.325744629;1.0;5.0;0.0;0.75;1.0;1.0;0.0;0.0;2.0;2.0;4.0;0.0;0.0;3.0;19.0;-1.0;0.0;0.0;0.0;-895.309265137;194.299911499;-0.00553232757375;0.0;8.0;0.0;3.10975456238;3.74000000954;3.0;11.1951160431;3.10975456238;5.2898371905e-06;-0.0108168916777;50.0;-2.63900303841;4.80147266388;14.0;0.0;17.7154903412;14.0;14.0;0.0;0.0;0.0;1.0;
3.05006599426;0.20000000298;0.0;12.0;20000.0;0.0;1.0;0.0;0.0;1.03067350388;0.548879146576;1.03067350388;-0.223379433155;0.0;-3.44592428207;0.0;0.0;-14.3130846024;-0.199295401573;-0.0492766536772;-10.5832195282;0.0;0.0;500.0;500.0;0.0;0.0;0.0;0.0;500.0;1000.0;321.229492188;99000.0;848.282775879;1.0;5.0;0.0;0.75;1.0;1.0;0.0;0.0;2.0;2.0;4.0;0.0;0.0;3.0;19.0;-1.0;0.0;0.0;0.0;-895.156555176;194.261764526;-0.00553231406957;0.0;8.0;0.0;3.16117620468;3.74000000954;3.0;11.3802347183;3.16117620468;0.00889134593308;-0.0109878834337;50.0;-2.56994819641;4.95885419846;13.6318359375;0.0;17.4785175323;13.6318359375;13.6318359375;0.0;0.0;0.0;1.0;
3.10010004044;0.20000000298;0.0;12.0;20000.0;0.0;1.0;0.0;0.0;1.03734457493;0.548901438713;1.03734457493;-0.22769895196;0.0;-3.38325810432;0.0;0.0;-14.8344068527;-0.199295401573;-0.0507605820894;-10.4929008484;0.0;-0.0652231648564;500.0;500.0;0.0;0.0;0.0;0.0;500.0;1000.0;321.081054688;99000.0;862.239440918;1.0;5.0;0.0;0.75;1.0;1.0;0.0;0.0;2.0;2.0;4.0;0.0;0.0;3.0;19.0;-1.0;0.0;0.0;0.0;-895.001708984;194.221572876;-0.00553229916841;0.0;8.0;0.0;3.21293997765;3.74000000954;3.0;11.5665836334;3.21293997765;0.00889962911606;-0.0111676771194;50.0;-2.50696539879;5.11884880066;13.2666015625;0.0;17.2445583344;13.2666015625;13.2666015625;0.0;0.0;0.0;1.0;
3.15009665489;0.20000000298;0.0;12.0;20000.0;0.0;1.0;0.0;0.0;1.04560232162;0.548923969269;1.04560232162;-0.239430353045;0.0;0.393558114767;0.0;0.0;-15.3527822495;-0.199295401573;-0.0556539781392;-10.3236093521;0.0;0.0;500.0;500.0;0.0;0.0;0.0;0.0;500.0;1000.0;320.921875;99000.0;883.35723877;1.0;5.0;0.0;0.75;1.0;1.0;0.0;0.0;2.0;2.0;4.0;0.0;0.0;3.0;19.0;-1.0;0.0;0.0;0.0;-894.844665527;194.17930603;-0.00553229916841;0.0;8.0;0.0;3.26510334015;3.74000000954;3.0;11.7543716431;3.26510334015;1.9986089228e-06;-0.0113572571427;50.0;-2.42711830139;5.28146600723;12.8876953125;0.0;17.0146160126;12.8876953125;12.8876953125;0.0;0.0;0.0;1.0;
3.20010375977;0.20000000298;0.0;12.0;20000.0;0.0;1.0;0.0;0.0;1.05325090885;0.548946678638;1.05325090885;-0.232213109732;0.0;-3.21719145775;0.0;0.0;-15.8584003448;-0.199295401573;-0.0523911379278;-10.1468305588;0.0;-0.0611221753061;500.0;500.0;0.0;0.0;0.0;0.0;500.0;1000.0;320.764648438;99000.0;890.463378906;1.0;5.0;0.0;0.75;1.0;1.0;0.0;0.0;2.0;2.0;4.0;0.0;0.0;3.0;19.0;-1.0;0.0;0.0;0.0;-894.685546875;194.134918213;-0.00553228426725;0.0;8.0;0.0;3.31766080856;3.74000000954;3.0;11.9435787201;3.31766080856;0.00876730214804;-0.0115318223834;50.0;-2.34776115417;5.44668579102;12.5078125;0.0;16.7897853851;12.5078125;12.5078125;0.0;0.0;0.0;1.0;
3.25007390976;0.20000000298;0.0;12.0;20000.0;0.0;1.0;0.0;0.0;1.06229293346;0.548969626427;1.06229293346;-0.242513477802;0.0;4.12277507782;0.0;0.0;-16.35496521;-0.199295401573;-0.0569768026471;-9.9393415451;0.0;0.0;500.0;500.0;0.0;0.0;0.0;0.0;500.0;1000.0;320.60546875;99000.0;911.911987305;1.0;5.0;0.0;0.75;1.0;1.0;0.0;0.0;2.0;2.0;4.0;0.0;0.0;3.0;19.0;-1.0;0.0;0.0;0.0;-894.524230957;194.088424683;-0.00553228426725;0.0;8.0;0.0;3.37064528465;3.74000000954;3.0;12.1343231201;3.37064528465;8.27071630738e-07;-0.0117243723944;50.0;-2.26360607147;5.61455965042;12.1220703125;0.0;16.5694084167;12.1220703125;12.1220703125;0.0;0.0;0.0;1.0;
3.30010890961;0.20000000298;0.0;12.0;20000.0;0.0;1.0;0.0;0.0;1.07219946384;0.548992753029;1.07219946384;-0.241327449679;0.0;-2.05036044121;0.0;0.0;-16.8393058777;-0.199295401573;-0.0539191551507;-9.64156532288;0.0;0.0;500.0;500.0;0.0;0.0;0.0;0.0;500.0;1000.0;320.444335938;99000.0;926.37890625;1.0;5.0;0.0;0.75;1.0;1.0;0.0;0.0;2.0;2.0;4.0;0.0;0.0;3.0;19.0;-1.0;0.0;0.0;0.0;-894.360717773;194.039779663;-0.00553228426725;0.0;8.0;0.0;3.42413258553;3.74000000954;3.0;12.326877594;3.42413258553;5.24716642758e-06;-0.0119104171172;50.0;-2.16149020195;5.78514671326;11.73046875;0.0;16.35587883;11.73046875;11.73046875;0.0;0.0;0.0;1.0;
3.3500790596;0.20000000298;0.0;12.0;20000.0;0.0;1.0;0.0;0.0;1.08571171761;0.549016177654;1.08571171761;-0.229932591319;0.0;-2.89628195763;0.0;0.0;-17.3049507141;-0.199295401573;-0.0539191551507;-9.28725624084;-0.0637557953596;0.0;500.0;500.0;0.0;0.0;0.0;0.0;500.0;1000.0;320.28125;99000.0;933.68145752;1.0;5.0;0.0;0.75;1.0;1.0;0.0;0.0;2.0;2.0;4.0;0.0;0.0;3.0;19.0;-1.0;0.0;0.0;0.0;-894.195129395;193.989028931;-0.00553217343986;0.0;8.0;0.0;3.47821378708;3.74000000954;3.0;12.521569252;3.47821378708;0.00823237467557;-0.0122763421386;50.0;-2.04968357086;5.95837020874;11.333984375;0.0;16.1483535767;11.333984375;11.333984375;0.0;0.0;0.0;1.0;
3.40011167526;0.20000000298;0.0;12.0;20000.0;0.0;1.0;0.0;0.0;-10.5365562439;0.549039721489;-10.5365562439;0.0092302672565;0.0;39.6435890198;0.0;0.0;-17.7495098114;-0.202351927757;-0.0539191551507;-8.90364360809;0.0;0.0;500.0;500.0;0.0;0.0;0.0;0.0;500.0;1000.0;320.115234375;99000.0;955.809631348;1.0;5.0;0.0;0.75;1.0;1.0;0.0;0.0;2.0;2.0;4.0;0.0;0.0;3.0;19.0;-1.0;0.0;0.0;0.0;-894.02722168;193.93611145;-0.00559425726533;0.0;8.0;0.0;3.53288936615;3.74000000954;3.0;12.7184019089;3.53288936615;4.9597196039e-07;-0.0138373775408;50.0;-1.93461251259;6.13436412811;10.931640625;0.0;15.9480981827;10.931640625;10.931640625;0.0;0.0;0.0;1.0;
3.45008301735;0.20000000298;0.0;12.0;20000.0;0.0;1.0;0.0;0.0;1.10618031025;0.549232840538;1.10618031025;-0.228717729449;0.0;-0.300353735685;0.0;0.0;-18.1740856171;-0.205419331789;-0.0539191551507;-8.48993492126;0.0;0.0;500.0;500.0;0.0;0.0;0.0;0.0;500.0;1000.0;319.947265625;99000.0;970.71105957;1.0;5.0;0.0;0.75;1.0;1.0;0.0;0.0;2.0;2.0;4.0;0.0;0.0;3.0;19.0;-1.0;0.0;0.0;0.0;-893.857177734;193.881103516;-0.00562031846493;0.0;8.0;0.0;3.58798241615;3.74000000954;3.0;12.9167366028;3.58798241615;1.18836044294e-06;-0.012863850221;50.0;-1.81639504433;6.31308603287;10.5234375;0.0;15.7565164566;10.5234375;10.5234375;0.0;0.0;0.0;1.0;
3.50011610985;0.20000000298;0.0;12.0;20000.0;0.0;1.0;0.0;0.0;-10.5242671967;0.549256920815;-10.5242671967;0.00923088472337;0.0;37.0756378174;0.0;0.0;-18.5760173798;-0.205419331789;-0.0539191551507;-8.0479259491;-0.0603650733829;0.0;500.0;500.0;0.0;0.0;0.0;0.0;500.0;1000.0;319.77734375;99000.0;985.81036377;1.0;5.0;0.0;0.75;1.0;1.0;0.0;0.0;2.0;2.0;4.0;0.0;0.0;3.0;19.0;-1.0;0.0;0.0;0.0;-893.684936523;193.823974609;-0.00564925558865;0.0;8.0;0.0;3.64378237724;3.74000000954;3.0;13.1176166534;3.64378237724;3.06008075768e-07;-0.0143203083426;50.0;-1.69546115398;6.49460792542;10.1103515625;0.0;15.5737628937;10.1103515625;10.1103515625;0.0;0.0;0.0;1.0;
3.5501241684;0.20000000298;0.0;12.0;20000.0;0.0;1.0;0.0;0.0;-10.5178194046;0.549450695515;-10.5178194046;0.009227829054;0.0;24.0225372314;0.0;0.0;-18.955039978;-0.208551868796;-0.0539191551507;-7.57762765884;0.0;0.0;500.0;500.0;0.0;0.0;0.0;0.0;500.0;1000.0;319.60546875;95.6541213989;1001.10021973;1.0;5.0;0.0;0.75;1.0;1.0;0.0;0.0;2.0;2.0;4.0;0.0;0.0;3.0;19.0;-1.0;0.0;0.0;0.0;-893.510314941;193.764770508;-0.00571455154568;0.0;8.0;0.0;3.70027518272;3.74000000954;3.0;13.3209905624;3.70027518272;1.34400988827e-06;-0.0159309394658;50.0;-1.57201087475;6.67896986008;9.6923828125;0.0;15.4005537033;9.6923828125;9.6923828125;0.0;0.0;0.0;1.0;
3.60011219978;0.20000000298;0.0;12.0;20000.0;0.0;1.0;0.0;0.0;1.14242255688;0.549644827843;1.14242255688;-0.203793659806;0.0;-0.96105492115;0.0;0.0;-19.3090076447;-0.213199362159;-0.0539191551507;-7.07887744904;0.0;0.0;500.0;500.0;0.0;0.0;0.0;0.0;500.0;1000.0;319.430664062;95.7322463989;1016.46160889;1.0;5.0;0.0;0.75;1.0;1.0;0.0;0.0;2.0;2.0;4.0;0.0;0.0;3.0;19.0;-1.0;0.0;0.0;0.0;-893.333435059;193.703536987;-0.00577065581456;0.0;8.0;0.0;3.7570874691;3.74000000954;3.0;13.5255146027;3.7570874691;1.0214488384e-06;-0.0139803085476;50.0;-1.44633662701;6.86612796783;9.267578125;0.0;15.238038063;9.267578125;9.267578125;0.0;0.0;0.0;1.0;
3.65009140968;0.20000000298;0.0;12.0;20000.0;0.0;1.0;0.0;0.0;1.15576708317;0.549669623375;1.15576708317;-0.186046883464;0.0;-1.98471164703;0.0;0.0;-19.6365795135;-0.213199362159;-0.0539191551507;-6.55425834656;-0.0638418346643;0.0;500.0;500.0;0.0;0.0;0.0;0.0;500.0;1000.0;319.25390625;95.8113479614;1024.23364258;1.0;5.0;0.0;0.75;1.0;1.0;0.0;0.0;2.0;2.0;4.0;0.0;0.0;3.0;19.0;-1.0;0.0;0.0;0.0;-893.15423584;193.640289307;-0.0058021643199;0.0;8.0;0.0;3.81468725204;3.74000000954;3.0;13.7328739166;3.81468725204;0.00617547379807;-0.015657177195;50.0;-1.3189265728;7.05616569519;8.8369140625;0.0;15.0870552063;8.8369140625;8.8369140625;0.0;0.0;0.0;1.0;
3.70012378693;0.20000000298;0.0;12.0;20000.0;0.0;1.0;0.0;0.0;-10.4992303848;0.549694776535;-10.4992303848;0.00888649839908;0.0;17.6179180145;0.0;0.0;-19.9366779327;-0.216251403093;-0.0539191551507;-6.00318908691;0.0;0.0;500.0;500.0;0.0;0.0;0.0;0.0;500.0;1000.0;319.075195312;95.8924026489;1047.76672363;1.0;5.0;0.0;0.75;1.0;1.0;0.0;0.0;2.0;2.0;4.0;0.0;0.0;3.0;19.0;-1.0;0.0;0.0;0.0;-892.97265625;193.57510376;-0.005879631266;0.0;8.0;0.0;3.87276911736;3.74000000954;3.0;13.9419689178;3.87276911736;9.92836362457e-07;-0.0159645527601;50.0;-1.18991708755;7.24911785126;8.412109375;0.0;14.9545478821;8.412109375;8.412109375;0.0;0.0;0.0;1.0;
3.75012183189;0.20000000298;0.0;12.0;20000.0;0.0;1.0;0.0;0.0;1.17772638798;0.549889922142;1.17772638798;-0.166020989418;0.0;-1.50836026669;0.0;0.0;-20.2083568573;-0.219266444445;-0.0519187301397;-5.4275560379;0.0;0.0;500.0;500.0;0.0;0.0;0.0;0.0;500.0;1000.0;318.893554688;95.9744338989;1063.61608887;1.0;5.0;0.0;0.75;1.0;1.0;0.0;0.0;2.0;2.0;4.0;0.0;0.0;3.0;19.0;-1.0;0.0;0.0;0.0;-892.788574219;193.507995605;-0.00591015210375;0.0;8.0;0.0;3.93139576912;3.74000000954;3.0;14.1530246735;3.93139576912;3.29533486365e-06;-0.015045219101;50.0;-1.05977535248;7.44501590729;7.98828125;0.0;14.8374567032;7.98828125;7.98828125;0.0;0.0;0.0;1.0;
3.80012059212;0.20000000298;0.0;12.0;20000.0;0.0;1.0;0.0;0.0;1.19015002251;0.549915671349;1.19015002251;-0.145550921559;0.0;-1.43931555748;0.0;0.0;-20.4499149323;-0.219266444445;-0.049625005573;-4.82766962051;-0.0663111507893;0.0;500.0;500.0;0.0;0.0;0.0;0.0;500.0;1000.0;318.708984375;96.0574417114;1071.62316895;1.0;5.0;0.0;0.75;1.0;1.0;0.0;0.0;2.0;2.0;4.0;0.0;0.0;3.0;19.0;-1.0;0.0;0.0;0.0;-892.602172852;193.439086914;-0.00594432651997;0.0;8.0;0.0;3.99070382118;3.74000000954;3.0;14.3665332794;3.99070382118;0.00470282463357;-0.0168607123196;50.0;-0.928633093834;7.64379310608;7.56640625;0.0;14.7341461182;7.56640625;7.56640625;0.0;0.0;0.0;1.0;
3.85009980202;0.20000000298;0.0;12.0;20000.0;0.0;1.0;0.0;0.0;-10.0460395813;0.549941658974;-10.0460395813;0.00730077782646;0.0;10.9666576385;0.0;0.0;-20.6603946686;-0.222433641553;-0.0470248758793;-4.20532941818;0.0;0.0;500.0;500.0;0.0;0.0;0.0;0.0;500.0;1000.0;318.5234375;96.1424026489;1095.83959961;1.0;5.0;0.0;0.75;1.0;1.0;0.0;0.0;2.0;2.0;4.0;0.0;0.0;3.0;19.0;-1.0;0.0;0.0;0.0;-892.413146973;193.368377686;-0.00602799607441;0.0;8.0;0.0;4.05045890808;3.74000000954;3.0;14.5816516876;4.05045890808;7.29300040803e-07;-0.017228949815;50.0;-0.796988606453;7.84561157227;7.146484375;0.0;14.6443796158;7.146484375;7.146484375;0.0;0.0;0.0;1.0;
3.90013766289;0.20000000298;0.0;12.0;20000.0;0.0;1.0;0.0;0.0;-1.1221101284;0.550131618977;-1.1221101284;-0.0255154184997;0.0;1.07364559174;0.0;0.0;-20.8386688232;-0.225527688861;-0.0426518432796;-3.56155705452;0.0;0.0;500.0;500.0;0.0;0.0;0.0;0.0;500.0;1000.0;318.333984375;96.2273635864;1112.12695312;1.0;5.0;0.0;0.75;1.0;1.0;0.0;0.0;2.0;2.0;4.0;0.0;0.0;3.0;19.0;-1.0;0.0;0.0;0.0;-892.221496582;193.295974731;-0.00606325175613;0.0;8.0;0.0;4.1106672287;3.74000000954;3.0;14.7984018326;4.1106672287;3.51344397131e-06;-0.0161804966629;50.0;-0.66509526968;8.05045318604;6.724609375;0.0;14.5689611435;6.724609375;6.724609375;0.0;0.0;0.0;1.0;
3.95010304451;0.20000000298;0.0;12.0;20000.0;0.0;1.0;0.0;0.0;1.22156703472;0.550192117691;1.22156703472;-0.0919208154082;0.0;-0.848358988762;0.0;0.0;-20.9840450287;-0.225527688861;-0.038210939616;-2.89742803574;-0.0668439045548;0.062183983624;500.0;500.0;0.0;0.0;0.0;0.0;500.0;1000.0;318.142578125;96.3142776489;1120.33642578;1.0;5.0;0.0;0.75;1.0;1.0;0.0;0.0;2.0;2.0;4.0;0.0;0.0;3.0;19.0;-1.0;0.0;0.0;0.0;-892.02734375;193.221969604;-0.00609858799726;0.0;8.0;0.0;4.17155122757;3.74000000954;3.0;15.0175848007;4.17155122757;0.00293566426262;-0.0180687829852;50.0;-0.533176898956;8.25825786591;6.30078125;0.0;14.5073041916;6.30078125;6.30078125;0.0;0.0;0.0;1.0;
4.00010728836;0.20000000298;0.0;12.0;20000.0;0.0;1.0;0.0;0.0;-8.37377071381;0.550219118595;-8.37377071381;0.0049658450298;0.0;4.51971244812;0.0;0.0;-21.0950660706;-0.228717446327;-0.030512329191;-2.21482563019;0.0;0.0648102238774;500.0;500.0;0.0;0.0;0.0;0.0;500.0;1000.0;317.948242188;96.4021682739;1145.17175293;1.0;5.0;0.0;0.75;1.0;1.0;0.0;0.0;2.0;2.0;4.0;0.0;0.0;3.0;19.0;-1.0;0.0;0.0;0.0;-891.830383301;193.146408081;-0.00618394231424;0.0;8.0;0.0;4.23280334473;3.74000000954;3.0;15.2380924225;4.23280334473;4.54379488701e-07;-0.0184408221394;50.0;-0.401668459177;8.46917724609;5.875;0.0;14.4599123001;5.875;5.875;0.0;0.0;0.0;1.0;
4.0501074791;0.20000000298;0.0;12.0;20000.0;0.0;1.0;0.0;0.0;1.23925280571;0.55038613081;1.23925280571;-0.0506917648017;0.0;-0.435357540846;0.0;0.0;-21.1712875366;-0.23178987205;-0.0257658381015;-1.51522564888;0.0;0.0;500.0;500.0;0.0;0.0;0.0;0.0;500.0;1000.0;317.751953125;96.4910354614;1161.84106445;1.0;5.0;0.0;0.75;1.0;1.0;0.0;0.0;2.0;2.0;4.0;0.0;0.0;3.0;19.0;-1.0;0.0;0.0;0.0;-891.63067627;193.069412231;-0.00622070860118;0.0;8.0;0.0;4.29446601868;3.74000000954;3.0;15.4600772858;4.29446601868;1.32491811655e-06;-0.017373342067;50.0;-0.270847260952;8.68322086334;5.4462890625;0.0;14.4274072647;5.4462890625;5.4462890625;0.0;0.0;0.0;1.0;
4.10014200211;0.20000000298;0.0;12.0;20000.0;0.0;1.0;0.0;0.0;1.24768519402;0.55041372776;1.24768519402;-0.025085831061;0.0;-0.229049533606;0.0;0.0;-21.2117977142;-0.23178987205;-0.024005420506;-0.799810528755;-0.0645918399096;0.0766060203314;500.0;500.0;0.0;0.0;0.0;0.0;500.0;1000.0;317.551757812;96.5808792114;1170.23962402;1.0;5.0;0.0;0.75;1.0;1.0;0.0;0.0;2.0;2.0;4.0;0.0;0.0;3.0;19.0;-1.0;0.0;0.0;0.0;-891.428283691;192.991149902;-0.00625547580421;0.0;8.0;0.0;4.35665607452;3.74000000954;3.0;15.6839618683;4.35665607452;0.000881327607203;-0.0192546397448;50.0;-0.140925660729;8.90024471283;5.0126953125;0.0;14.4096984863;5.0126953125;5.0126953125;0.0;0.0;0.0;1.0;
4.15013933182;0.20000000298;0.0;12.0;20000.0;0.0;1.0;0.0;0.0;1.25076270103;0.550441682339;1.25076270103;-0.0026059767697;0.0;-0.0202923957258;0.0;0.0;-21.2159175873;-0.234868943691;-0.0146746151149;-0.0716973394156;0.0;0.0899253040552;500.0;500.0;0.0;0.0;0.0;0.0;500.0;1000.0;317.349609375;49.5168037415;1187.11767578;1.0;5.0;0.0;0.75;1.0;1.0;0.0;0.0;2.0;2.0;3.0;0.0;0.0;3.0;2.0;-1.0;0.0;0.0;0.0;-891.222900391;192.911651611;-0.00633884361014;0.0;8.0;0.0;4.4191365242;3.74000000954;3.0;15.9088916779;4.4191365242;7.13426488801e-05;-0.019866431132;50.0;-0.012454373762;9.12043476105;4.576171875;0.0;14.4071979523;4.576171875;4.576171875;0.0;0.0;0.0;1.0;
4.20014476776;0.20000000298;0.0;12.0;20000.0;0.0;1.0;0.0;0.0;-1.82147026062;0.55047005415;-1.82147026062;0.0056078559719;0.0;-0.289906859398;0.0;0.0;-21.1830635071;-0.2363704741;-0.00848177541047;0.667658865452;0.0;0.0;500.0;500.0;0.0;0.0;0.0;0.0;500.0;1000.0;317.14453125;49.5695381165;1212.53857422;1.0;5.0;0.0;0.75;1.0;1.0;0.0;0.0;2.0;2.0;3.0;0.0;0.0;3.0;2.0;-1.0;0.0;0.0;0.0;-891.014587402;192.831069946;-0.00633885432035;0.0;8.0;0.0;4.48179769516;3.74000000954;3.0;16.1344718933;4.48179769516;-7.096475656e-07;-0.018489504233;50.0;0.114355929196;9.3438167572;4.1357421875;0.0;14.4203310013;4.1357421875;4.1357421875;0.0;0.0;0.0;1.0;
4.25011730194;0.20000000298;0.0;12.0;20000.0;0.0;1.0;0.0;0.0;1.263220191;0.550543487072;1.263220191;0.0531969331205;0.0;0.393664211035;0.0;0.0;-21.1128063202;-0.2363704741;-0.00712223723531;1.41636383533;-0.0587271489203;0.0927968025208;500.0;500.0;0.0;0.0;0.0;0.0;500.0;1000.0;316.936523438;49.623249054;1221.05126953;1.0;5.0;0.0;0.75;1.0;1.0;0.0;0.0;2.0;2.0;3.0;0.0;0.0;3.0;2.0;-1.0;0.0;0.0;0.0;-890.803344727;192.749572754;-0.00633879611269;0.0;8.0;0.0;4.54485845566;3.74000000954;3.0;16.3614902496;4.54485845566;-0.00145935430191;-0.0188660789281;50.0;0.239227280021;9.57023048401;3.6904296875;0.0;14.4492282867;3.6904296875;3.6904296875;0.0;0.0;0.0;1.0;
4.30015039444;0.20000000298;0.0;12.0;20000.0;0.0;1.0;0.0;0.0;-8.0642414093;0.550572514534;-8.0642414093;0.0028066879604;0.0;-3.89598464966;0.0;0.0;-21.004825592;-0.237837910652;0.00404452672228;2.17114281654;0.0;0.0753467082977;500.0;500.0;0.0;0.0;0.0;0.0;500.0;1000.0;316.724609375;49.6769599915;1246.74780273;1.0;5.0;0.0;0.75;1.0;1.0;0.0;0.0;2.0;2.0;3.0;0.0;0.0;3.0;2.0;-1.0;0.0;0.0;0.0;-890.588928223;192.667251587;-0.0064162844792;0.0;8.0;0.0;4.60825157166;3.74000000954;3.0;16.5897064209;4.60825157166;-5.14967211984e-07;-0.020671909675;50.0;0.361666709185;9.79989910126;3.2392578125;0.0;14.4941883087;3.2392578125;3.2392578125;0.0;0.0;0.0;1.0;
4.35012054443;0.20000000298;0.0;12.0;20000.0;0.0;1.0;0.0;0.0;-6.5928068161;0.5507376194;-6.5928068161;-0.030904924497;0.0;-4.41696453094;0.0;0.0;-20.8588294983;-0.240904763341;0.00964014325291;2.93060779572;0.0;0.0;500.0;500.0;0.0;0.0;0.0;0.0;500.0;1000.0;316.510742188;49.7316474915;1263.90527344;1.0;5.0;0.0;0.75;1.0;1.0;0.0;0.0;2.0;2.0;3.0;0.0;0.0;3.0;2.0;-1.0;0.0;0.0;0.0;-890.371398926;192.58430481;-0.00645319139585;0.0;8.0;0.0;4.67166566849;3.74000000954;3.0;16.8179969788;4.67166566849;-1.14644649329e-06;-0.019642515108;50.0;0.481550902128;10.0327110291;2.7841796875;0.0;14.5552902222;2.7841796875;2.7841796875;0.0;0.0;0.0;1.0;
4.40015125275;0.20000000298;0.0;12.0;20000.0;0.0;1.0;0.0;0.0;1.27566730976;0.550881683826;1.27566730976;0.145198985934;0.0;0.994145750999;0.0;0.0;-20.6748847961;-0.240904763341;0.014007425867;3.69099378586;0.0;0.101160526276;500.0;500.0;0.0;0.0;0.0;0.0;500.0;1000.0;316.29296875;49.7863349915;1272.50280762;1.0;5.0;0.0;0.75;1.0;1.0;0.0;0.0;2.0;2.0;3.0;0.0;0.0;3.0;2.0;-1.0;0.0;0.0;0.0;-890.150695801;192.500854492;-0.00645316950977;0.0;8.0;0.0;4.73535776138;3.74000000954;3.0;17.0472869873;4.73535776138;-0.00394586566836;-0.0199088677764;50.0;0.598338246346;10.2686834335;2.322265625;0.0;14.6327047348;2.322265625;2.322265625;0.0;0.0;0.0;1.0;
4.45012426376;0.20000000298;0.0;12.0;20000.0;0.0;1.0;0.0;0.0;-11.7719755173;0.550911724567;-11.7719755173;-0.140977203846;0.0;-11.8502559662;0.0;0.0;-20.4528255463;-0.240904763341;0.0260624401271;4.45036649704;0.0;0.0833105221391;500.0;500.0;0.0;0.0;0.0;0.0;500.0;1000.0;316.072265625;49.8410224915;1298.38793945;1.0;5.0;0.0;0.75;1.0;1.0;0.0;0.0;2.0;2.0;3.0;0.0;0.0;3.0;2.0;-1.0;0.0;0.0;0.0;-889.926696777;192.417053223;-0.00645313877612;0.0;8.0;0.0;4.79912757874;3.74000000954;3.0;17.2768592834;4.79912757874;-1.07262542315e-06;-0.0201784409583;50.0;0.711852133274;10.5078525543;1.8564453125;0.0;14.7268610001;1.8564453125;1.8564453125;0.0;0.0;0.0;1.0;
4.50016736984;0.20000000298;0.0;12.0;20000.0;0.0;1.0;0.0;0.0;-6.66994047165;0.551131904125;-6.66994047165;-0.0521123185754;0.0;-7.7764954567;0.0;0.0;-20.1931743622;-0.240904763341;0.0321307852864;5.20563697815;0.0;0.0;500.0;500.0;0.0;0.0;0.0;0.0;500.0;1000.0;315.848632812;49.896686554;1315.66577148;1.0;5.0;0.0;0.75;1.0;1.0;0.0;0.0;2.0;2.0;3.0;0.0;0.0;3.0;2.0;-1.0;0.0;0.0;0.0;-889.699279785;192.333099365;-0.00645308708772;0.0;8.0;0.0;4.86298274994;3.74000000954;3.0;17.5067386627;4.86298274994;-2.34600543081e-06;-0.0204469300807;50.0;0.821726799011;10.7502250671;1.384765625;0.0;14.8370008469;1.384765625;1.384765625;0.0;0.0;0.0;1.0;
4.55015611649;0.20000000298;0.0;12.0;20000.0;0.0;1.0;0.0;0.0;1.28062856197;0.551278173923;1.28062856197;0.237218052149;0.0;1.54672241211;0.0;0.0;-19.8957595825;-0.240904763341;0.0367688201368;5.95362949371;0.0;0.109882950783;500.0;500.0;0.0;0.0;0.0;0.0;500.0;1000.0;315.62109375;49.951374054;1324.2947998;1.0;5.0;0.0;0.75;1.0;1.0;0.0;0.0;2.0;2.0;3.0;0.0;0.0;3.0;2.0;-1.0;0.0;0.0;0.0;-889.468566895;192.249160767;-0.00645303213969;0.0;8.0;0.0;4.92690610886;3.74000000954;3.0;17.7368621826;4.92690610886;-0.00678619835526;-0.0207104645669;50.0;0.927606403828;10.9957675934;0.90625;0.0;14.9639425278;0.90625;0.90625;0.0;0.0;0.0;1.0;
4.60015392303;0.20000000298;0.0;12.0;20000.0;0.0;1.0;0.0;0.0;-23.1457691193;0.0;-23.1457691193;-1.07611215115;0.0;-34.226940155;0.0;0.0;-19.5616798401;-0.240904763341;0.0497563518584;6.51673364639;1.29928016663;0.0761890783906;500.0;500.0;21.3210887909;0.0;0.0;0.0;500.0;1000.0;315.390625;50.0070381165;935.231567383;1.0;5.0;0.0;0.75;2.0;2.0;0.0;0.0;2.0;2.0;3.0;0.0;0.0;3.0;2.0;-1.0;0.0;0.0;0.0;-889.239501953;192.167205811;-0.00577725889161;0.0;8.0;0.0;4.86043930054;3.74000000954;3.0;17.4975814819;4.86043930054;-5.86214036957e-06;0.0127052497119;50.0;1.02922594547;11.2390241623;0.4228515625;0.0;15.1074771881;0.4228515625;0.4228515625;0.0;0.0;0.0;1.0;
